City,Raid Location,Friendly Name,Longitude,Latitude,Map Link
Redmond,Cleveland Fountain,Cleveland Fountain,47.673667,-122.125595,"https://www.google.com/maps/dir/?api=1&destination=47.673667,-122.1255950"
Redmond,Gridlock Light Sculpture,Gridlock,47.673298,-122.125256,"https://www.google.com/maps/dir/?api=1&destination=47.673298,-122.1252560"
Redmond,Painted Parking Lot,Painted Parking Lot,47.672712,-122.124617,"https://www.google.com/maps/dir/?api=1&destination=47.672712,-122.1246170"
Redmond,Redmond Town Center Fish Statue,Farmers Market,47.671892,-122.124425,"https://www.google.com/maps/dir/?api=1&destination=47.671892,-122.1244250"
Redmond,Redmond Clock Tower,Clock Tower,47.67417,-122.123056,"https://www.google.com/maps/dir/?api=1&destination=47.674170,-122.1230560"
Redmond,Victors Coffee Co. and Roasters,Victors Coffeeshop,47.674577,-122.1219,"https://www.google.com/maps/dir/?api=1&destination=47.674577,-122.1219000"
Redmond,Redmond's Erratic,Redmond Erratic,47.671955,-122.119251,"https://www.google.com/maps/dir/?api=1&destination=47.671955,-122.1192510"
Redmond,Kids Playing Baseball Mural,Mattress Firm,47.67262,-122.116819,"https://www.google.com/maps/dir/?api=1&destination=47.672620,-122.1168190"
Redmond,BJ's Brewmural,BJs Brewhouse,47.668914,-122.119748,"https://www.google.com/maps/dir/?api=1&destination=47.668914,-122.1197480"
Redmond,Mural (Wells Fargo),Wells Fargo,47.67865,-122.127309,"https://www.google.com/maps/dir/?api=1&destination=47.678650,-122.1273090"
Redmond,Wisdom Seekers in Redmond,Redmond Library,47.678799,-122.128532,"https://www.google.com/maps/dir/?api=1&destination=47.678799,-122.1285320"
Redmond,Luke McRedmond's Paired Beavers,Luke McRedmond,47.67325,-122.13216,"https://www.google.com/maps/dir/?api=1&destination=47.673250,-122.1321600"
Redmond,Soulfood Books and Cafe,Soul Foods,47.675219,-122.130386,"https://www.google.com/maps/dir/?api=1&destination=47.675219,-122.1303860"
Redmond,West Ironcycle,Ben Franklin,47.675691,-122.130123,"https://www.google.com/maps/dir/?api=1&destination=47.675691,-122.1301230"
Redmond,Hunting Fox,City Hall,47.67892,-122.13052,"https://www.google.com/maps/dir/?api=1&destination=47.678920,-122.1305200"
Redmond,Weiner Elephants,Redmond PD,47.680386,-122.128889,"https://www.google.com/maps/dir/?api=1&destination=47.680386,-122.1288890"
Redmond,Portal II,Portal 2,47.680447,-122.131723,"https://www.google.com/maps/dir/?api=1&destination=47.680447,-122.1317230"
Redmond,The Last Test,Last Test,47.682691,-122.132021,"https://www.google.com/maps/dir/?api=1&destination=47.682691,-122.1320210"
Redmond,Community Rockstars,Community Rockstars,47.683612,-122.132734,"https://www.google.com/maps/dir/?api=1&destination=47.683612,-122.1327340"
Redmond,Redmond Twist,Evergreen,47.681979,-122.123692,"https://www.google.com/maps/dir/?api=1&destination=47.681979,-122.1236920"
Redmond,Mysterious Hatch,Reservoir Park,47.685378,-122.122394,"https://www.google.com/maps/dir/?api=1&destination=47.685378,-122.1223940"
Redmond,Nike Park,Nike Park,47.683823,-122.110841,"https://www.google.com/maps/dir/?api=1&destination=47.683823,-122.1108410"
Redmond,St. Jude Walking Trail,St Judes,47.693495,-122.116883,"https://www.google.com/maps/dir/?api=1&destination=47.693495,-122.1168830"
Redmond,Redmond Meadow Park,Meadow Park,47.695703,-122.12655,"https://www.google.com/maps/dir/?api=1&destination=47.695703,-122.1265500"
Redmond,Leaf Inlay in Sidewalk,Leaf Inlay,47.689362,-122.114435,"https://www.google.com/maps/dir/?api=1&destination=47.689362,-122.1144350"
Redmond,The Church Of Jesus Christ Of Latter-Day Saints (Hartman Park),LDS (Hartman Park),47.690909,-122.110964,"https://www.google.com/maps/dir/?api=1&destination=47.690909,-122.1109640"
Redmond,Hartman Park,Hartman Park Sign,47.691002,-122.110177,"https://www.google.com/maps/dir/?api=1&destination=47.691002,-122.1101770"
Redmond,Jim Palmquist Memorial Plaque,Hartman Park (Baseball),47.692436,-122.107328,"https://www.google.com/maps/dir/?api=1&destination=47.692436,-122.1073280"
Redmond,Redmond Pool,Redmond Pool,47.692516,-122.106308,"https://www.google.com/maps/dir/?api=1&destination=47.692516,-122.1063080"
Redmond,Bear Creek Water Tower,Bear Creek Water Tower,47.687974,-122.103674,"https://www.google.com/maps/dir/?api=1&destination=47.687974,-122.1036740"
Redmond,Education Hill Pig,Education Hill Pig,47.674945,-122.111546,"https://www.google.com/maps/dir/?api=1&destination=47.674945,-122.1115460"
Redmond,Wild Silhouettes,Avondale Bus Stop,47.678821,-122.104461,"https://www.google.com/maps/dir/?api=1&destination=47.678821,-122.1044610"
Redmond,Ashford Park Gazebo,Ashford Park Gazebo,47.682791,-122.100218,"https://www.google.com/maps/dir/?api=1&destination=47.682791,-122.1002180"
Redmond,Sunset Grove Park Gazebo,Sunset Grove Gazebo,47.685978,-122.096297,"https://www.google.com/maps/dir/?api=1&destination=47.685978,-122.0962970"
Redmond,Anderson Park,Anderson Park,47.67374,-122.116119,"https://www.google.com/maps/dir/?api=1&destination=47.673740,-122.1161190"
Redmond,Find shiny deals at Sprint,Redmond Sprint,47.670882,-122.114047,"https://www.google.com/maps/dir/?api=1&destination=47.670882,-122.1140470"
Redmond,Salmon Circles II,Red Robin,47.670266,-122.113983,"https://www.google.com/maps/dir/?api=1&destination=47.670266,-122.1139830"
Redmond,Bear Creek Crossing,Redmond Panera,47.671026,-122.110648,"https://www.google.com/maps/dir/?api=1&destination=47.671026,-122.1106480"
Redmond,Riparian Area,Safeway/Riparian,47.67182,-122.108778,"https://www.google.com/maps/dir/?api=1&destination=47.671820,-122.1087780"
Redmond,Fountain Fish,Millennium Campus,47.677081,-122.093758,"https://www.google.com/maps/dir/?api=1&destination=47.677081,-122.0937580"
Redmond,The Redmond Bicycle,Redmond Bicycle,47.673542,-122.134375,"https://www.google.com/maps/dir/?api=1&destination=47.673542,-122.1343750"
Redmond,Bicycle Bike Rack,Redmond 7-11,47.669839,-122.130934,"https://www.google.com/maps/dir/?api=1&destination=47.669839,-122.1309340"
Redmond,Big Red Ball,Redmond Target,47.672208,-122.104056,"https://www.google.com/maps/dir/?api=1&destination=47.672208,-122.1040560"
Redmond,Works Sculpture at Redmond Cit,Redmond Works Sculpture,47.672222,-122.098055,"https://www.google.com/maps/dir/?api=1&destination=47.672222,-122.0980550"
Redmond,Redmond Post Office,Redmond Post Office,47.6693,-122.095035,"https://www.google.com/maps/dir/?api=1&destination=47.669300,-122.0950350"
Redmond,Redmond Bicycle Sculpture,Redmond Inn,47.668468,-122.105097,"https://www.google.com/maps/dir/?api=1&destination=47.668468,-122.1050970"
Redmond,Muslim Association Of Puget Sound,Muslim Association (MAPS),47.665574,-122.106531,"https://www.google.com/maps/dir/?api=1&destination=47.665574,-122.1065310"
Redmond,Uly Al Rw,Marymoor (Uly Al Rw),47.661421,-122.105375,"https://www.google.com/maps/dir/?api=1&destination=47.661421,-122.1053750"
Redmond,Vern Wagner Fields Dedication,Marymoor (Vern Wagner),47.664586,-122.115819,"https://www.google.com/maps/dir/?api=1&destination=47.664586,-122.1158190"
Redmond,Marymoor Park Soccer Fields,Marymoor (Soccer Fields),47.665222,-122.119801,"https://www.google.com/maps/dir/?api=1&destination=47.665222,-122.1198010"
Redmond,Have You Seen My Baseball?,Marymoor (Baseball Fields),47.664054,-122.12451,"https://www.google.com/maps/dir/?api=1&destination=47.664054,-122.1245100"
Redmond,Marymoor Park,Marymoor (Entrance),47.662058,-122.125947,"https://www.google.com/maps/dir/?api=1&destination=47.662058,-122.1259470"
Redmond,G Patrick Glenn Bench,Marymoor (Glenn Bench),47.661997,-122.123426,"https://www.google.com/maps/dir/?api=1&destination=47.661997,-122.1234260"
Redmond,Shapers Shelter,Marymoor (Shapers Shelter),47.660554,-122.121721,"https://www.google.com/maps/dir/?api=1&destination=47.660554,-122.1217210"
Redmond,Owl Pole Marymoor Park,Marymoor (Owl Pole),47.660371,-122.114934,"https://www.google.com/maps/dir/?api=1&destination=47.660371,-122.1149340"
Redmond,Sophie Irish Memorial Rock,Marymoor (Sophie Irish Memorial),47.659638,-122.114947,"https://www.google.com/maps/dir/?api=1&destination=47.659638,-122.1149470"
Redmond,Dog Watch Bridge,Marymoor (Dog Watch Bridge),47.658598,-122.115464,"https://www.google.com/maps/dir/?api=1&destination=47.658598,-122.1154640"
Redmond,Josh Dowell Memorial Bench,Marymoor (Josh Dowell Memorial),47.658938,-122.11084,"https://www.google.com/maps/dir/?api=1&destination=47.658938,-122.1108400"
Redmond,Swamp Dog Bridge,Marymoor (Swamp Dog Bridge),47.657154,-122.110968,"https://www.google.com/maps/dir/?api=1&destination=47.657154,-122.1109680"
Redmond,Succession,Marymoor (Succession),47.655915,-122.108288,"https://www.google.com/maps/dir/?api=1&destination=47.655915,-122.1082880"
Redmond,The Rich Marsh,Marymoor (Rich Marsh),47.653069,-122.107094,"https://www.google.com/maps/dir/?api=1&destination=47.653069,-122.1070940"
Redmond,Marymoor Park Sammamish Rowing Facility,Marymoor (Rowing Facility),47.653548,-122.117129,"https://www.google.com/maps/dir/?api=1&destination=47.653548,-122.1171290"
Redmond,Spiritbrook Park,Spiritbrook Park,47.66459,-122.139351,"https://www.google.com/maps/dir/?api=1&destination=47.664590,-122.1393510"
Rose Hill,Grass Lawn Park,Grass Lawn Park (Corner),47.667866,-122.143273,"https://www.google.com/maps/dir/?api=1&destination=47.667866,-122.1432730"
Rose Hill,GLP: Challenge,Grass Lawn Park (Challenge),47.667172,-122.145776,"https://www.google.com/maps/dir/?api=1&destination=47.667172,-122.1457760"
Rose Hill,Austin J.Eversole Eagle Scout Project,Grass Lawn Park (Woods),47.667063,-122.148187,"https://www.google.com/maps/dir/?api=1&destination=47.667063,-122.1481870"
Overlake,Running Man Sidewalk,RedWest (Sidewalk),47.660022,-122.141825,"https://www.google.com/maps/dir/?api=1&destination=47.660022,-122.1418250"
Overlake,Step Waterfall,RedWest (Waterfall),47.65896,-122.140784,"https://www.google.com/maps/dir/?api=1&destination=47.658960,-122.1407840"
Overlake,Microsoft Redwest Wetlands East,RedWest (Wetlands),47.656599,-122.138512,"https://www.google.com/maps/dir/?api=1&destination=47.656599,-122.1385120"
Overlake,All Saints Lutheran Church,All Saints Lutheran Church,47.657134,-122.143459,"https://www.google.com/maps/dir/?api=1&destination=47.657134,-122.1434590"
Overlake,Tree Cave,RedWest (Tree Cave),47.655397,-122.140535,"https://www.google.com/maps/dir/?api=1&destination=47.655397,-122.1405350"
Overlake,Nintendo Sign,Nintendo Sign,47.654689,-122.141007,"https://www.google.com/maps/dir/?api=1&destination=47.654689,-122.1410070"
Overlake,Nintendo of America,Nintendo Building,47.651046,-122.140126,"https://www.google.com/maps/dir/?api=1&destination=47.651046,-122.1401260"
Overlake,Running Man Corner,Microsoft B88,47.653868,-122.134799,"https://www.google.com/maps/dir/?api=1&destination=47.653868,-122.1347990"
Overlake,Running Man Trail Marker,Microsoft B84,47.649877,-122.134852,"https://www.google.com/maps/dir/?api=1&destination=47.649877,-122.1348520"
Overlake,North Bellevue Community Center,NBCC,47.647675,-122.1433,"https://www.google.com/maps/dir/?api=1&destination=47.647675,-122.1433000"
Overlake,Ling Shen Ching Tze Temple,Ling Shen Temple,47.646527,-122.112718,"https://www.google.com/maps/dir/?api=1&destination=47.646527,-122.1127180"
Overlake,Stormwater Pond,Bel-Red Stormwater Pond,47.64598,-122.114528,"https://www.google.com/maps/dir/?api=1&destination=47.645980,-122.1145280"
Overlake,Idylwood Park South Side,Idylwood Park (South Side),47.641949,-122.103427,"https://www.google.com/maps/dir/?api=1&destination=47.641949,-122.1034270"
Overlake,Rockfish,Idylwood Park (Rockfish),47.642697,-122.10253,"https://www.google.com/maps/dir/?api=1&destination=47.642697,-122.1025300"
Overlake,Ardmore Park,Ardmore Park,47.636716,-122.115505,"https://www.google.com/maps/dir/?api=1&destination=47.636716,-122.1155050"
Overlake,Overlake Transit: Northern Compass,Overlake Transit (Northern Compass),47.645805,-122.133929,"https://www.google.com/maps/dir/?api=1&destination=47.645805,-122.1339290"
Overlake,Overlake Transit: Compass Rose,Overlake Transit (Compass Rose),47.644329,-122.133199,"https://www.google.com/maps/dir/?api=1&destination=47.644329,-122.1331990"
Overlake,MSFT Bldg 25 Cafe Fountain,Microsoft B25,47.645331,-122.131129,"https://www.google.com/maps/dir/?api=1&destination=47.645331,-122.1311290"
Overlake,The Halo Vignette,Microsoft Studio D,47.643057,-122.135625,"https://www.google.com/maps/dir/?api=1&destination=47.643057,-122.1356250"
Overlake,99 Rock Falls,Microsoft B99,47.642252,-122.141233,"https://www.google.com/maps/dir/?api=1&destination=47.642252,-122.1412330"
Overlake,Nebula Torcida,Microsoft B115,47.640355,-122.141738,"https://www.google.com/maps/dir/?api=1&destination=47.640355,-122.1417380"
Overlake,Cafe 43 Fountain,Microsoft Cafe 43,47.639946,-122.133298,"https://www.google.com/maps/dir/?api=1&destination=47.639946,-122.1332980"
Overlake,Small Waterfall,Microsoft B24,47.64113,-122.131385,"https://www.google.com/maps/dir/?api=1&destination=47.641130,-122.1313850"
Overlake,Microsoft Vision Plaque,Microsoft B16,47.642939,-122.127827,"https://www.google.com/maps/dir/?api=1&destination=47.642939,-122.1278270"
Overlake,Microsoft Fountain,Microsoft B9,47.639626,-122.127396,"https://www.google.com/maps/dir/?api=1&destination=47.639626,-122.1273960"
Overlake,Double Quad,Microsoft B6,47.639234,-122.125582,"https://www.google.com/maps/dir/?api=1&destination=47.639234,-122.1255820"
Overlake,TWC - Stone Columns,Microsoft B27,47.635711,-122.130721,"https://www.google.com/maps/dir/?api=1&destination=47.635711,-122.1307210"
Rose Hill,Tech City Bowl,Tech City Bowl,47.666658,-122.165583,"https://www.google.com/maps/dir/?api=1&destination=47.666658,-122.1655830"
Rose Hill,Bowling Mania,Tech City Bowling Mania,47.666398,-122.165746,"https://www.google.com/maps/dir/?api=1&destination=47.666398,-122.1657460"
Bridle Trails,Bridle Crest Trail Sign,Westside Park,47.659676,-122.132498,"https://www.google.com/maps/dir/?api=1&destination=47.659676,-122.1324980"
Redmond,Redmond Stormwater Project,Redmond Arco,47.681894,-122.143754,"https://www.google.com/maps/dir/?api=1&destination=47.681894,-122.1437540"
Redmond,Black Raven Brewing Co.,Black Raven,47.685628,-122.14461,"https://www.google.com/maps/dir/?api=1&destination=47.685628,-122.1446100"
Redmond,Digipen Institute of Technology,Digipen,47.688851,-122.150289,"https://www.google.com/maps/dir/?api=1&destination=47.688851,-122.1502890"
Redmond,Willows Run Golf,Willows Golf Course,47.694295,-122.150992,"https://www.google.com/maps/dir/?api=1&destination=47.694295,-122.1509920"
Redmond,Trails Project Kiosk,Samammish River Trail Kiosk,47.689861,-122.134146,"https://www.google.com/maps/dir/?api=1&destination=47.689861,-122.1341460"
Redmond,Redmond - Powerline Trail,Redmond Powerline Trail,47.691434,-122.130248,"https://www.google.com/maps/dir/?api=1&destination=47.691434,-122.1302480"
Redmond,Redwood Family Church,Redwood Family Church,47.702695,-122.131803,"https://www.google.com/maps/dir/?api=1&destination=47.702695,-122.1318030"
Redmond,Perrigo Park Welcome Sign,Perrigo Park,47.682932,-122.080517,"https://www.google.com/maps/dir/?api=1&destination=47.682932,-122.0805170"
Redmond,McWhirter Park,Farrell McWhirter Park (Road),47.692419,-122.079004,"https://www.google.com/maps/dir/?api=1&destination=47.692419,-122.0790040"
Redmond,Charlotte's Trailhead,Farrell McWhirter Park (Trail),47.693287,-122.08074,"https://www.google.com/maps/dir/?api=1&destination=47.693287,-122.0807400"
Redmond,"Connor ""Boy"" Reed Memorial Bench",Farrell McWhirter Park (Bench),47.694365,-122.079746,"https://www.google.com/maps/dir/?api=1&destination=47.694365,-122.0797460"
Redmond,Bird on a Boat,Redmond PCC,47.701848,-122.0933,"https://www.google.com/maps/dir/?api=1&destination=47.701848,-122.0933000"
Redmond,Juel Park,Juel Park (Entrance),47.702702,-122.089278,"https://www.google.com/maps/dir/?api=1&destination=47.702702,-122.0892780"
Redmond,Juel Trail,Juel Park (Trail),47.701802,-122.089142,"https://www.google.com/maps/dir/?api=1&destination=47.701802,-122.0891420"
Overlake,Truck In A Tree,Microsoft B30,47.644983,-122.121525,"https://www.google.com/maps/dir/?api=1&destination=47.644983,-122.1215250"
Overlake,Microsoft Fitness Trail,Microsoft Fitness Trail,47.643633,-122.120667,"https://www.google.com/maps/dir/?api=1&destination=47.643633,-122.1206670"
Overlake,Creekside Covenant Church,Creekside Covenant Church,47.630389,-122.109666,"https://www.google.com/maps/dir/?api=1&destination=47.630389,-122.1096660"
Crossroads,Bellevue Youth Theatre,Bellevue Youth Theatre,47.62277,-122.116785,"https://www.google.com/maps/dir/?api=1&destination=47.622770,-122.1167850"
Crossroads,Bellevue Masonic Center's Plaque,Bellevue Masonic Center,47.624449,-122.122578,"https://www.google.com/maps/dir/?api=1&destination=47.624449,-122.1225780"
Overlake,Overlake Park Presbyterian Church,Overlake Park Prebyterian Church,47.627528,-122.131699,"https://www.google.com/maps/dir/?api=1&destination=47.627528,-122.1316990"
Crossroads,Colonial Square Apartment Homes,Xroads (Colonial Square),47.624645,-122.132236,"https://www.google.com/maps/dir/?api=1&destination=47.624645,-122.1322360"
Crossroads,Crossroads Cow in Stone Garden,Xroads (Cow),47.620334,-122.130254,"https://www.google.com/maps/dir/?api=1&destination=47.620334,-122.1302540"
Crossroads,Woodland Mural,Xroads (Woodland Mural),47.619303,-122.129903,"https://www.google.com/maps/dir/?api=1&destination=47.619303,-122.1299030"
Crossroads,Coffee Cup Bike Rack,Xroads (Bike Rack),47.618412,-122.131228,"https://www.google.com/maps/dir/?api=1&destination=47.618412,-122.1312280"
Crossroads,Crossroads Community Center,Xroads (Community Center),47.619357,-122.128017,"https://www.google.com/maps/dir/?api=1&destination=47.619357,-122.1280170"
Crossroads,The Salvation Army,Xroads (Salvation Army),47.618808,-122.122246,"https://www.google.com/maps/dir/?api=1&destination=47.618808,-122.1222460"
Crossroads,Calvary Lutheran Church,Calvary Lutheran Church,47.614881,-122.122409,"https://www.google.com/maps/dir/?api=1&destination=47.614881,-122.1224090"
Crossroads,P. George Brown Memorial Bench,Hilaire Park (Bench),47.614595,-122.128187,"https://www.google.com/maps/dir/?api=1&destination=47.614595,-122.1281870"
Crossroads,Hilaire Park,Hilaire Park (Entrance),47.615103,-122.129232,"https://www.google.com/maps/dir/?api=1&destination=47.615103,-122.1292320"
Crossroads,Cross of Christ Lutheran Church,Cross of Christ Lutheran Church,47.61394,-122.133089,"https://www.google.com/maps/dir/?api=1&destination=47.613940,-122.1330890"
Lake Hills,Lake to Lake Trail Marker North,Lake to Lake Trail Marker North,47.608007,-122.138162,"https://www.google.com/maps/dir/?api=1&destination=47.608007,-122.1381620"
Lake Hills,St. Louise De Marillac Catholic Church,St. Louise De Marillac Catholic Church,47.60848,-122.132377,"https://www.google.com/maps/dir/?api=1&destination=47.608480,-122.1323770"
Lake Hills,Keep Wildlife Wild,Larsen Lake Blueberry Farm,47.605443,-122.137446,"https://www.google.com/maps/dir/?api=1&destination=47.605443,-122.1374460"
Lake Hills,Evergreen Park Dog Stop,Evergreen Park Dog Stop,47.603728,-122.128443,"https://www.google.com/maps/dir/?api=1&destination=47.603728,-122.1284430"
Lake Hills,Weowna Park Trail Stairway Marker,Weowna Park (Trail Stairway),47.60261,-122.114019,"https://www.google.com/maps/dir/?api=1&destination=47.602610,-122.1140190"
Lake Hills,The Club,Boys and Girls Club,47.602973,-122.136574,"https://www.google.com/maps/dir/?api=1&destination=47.602973,-122.1365740"
Lake Hills,Blueberry Farmers at the Blueberry Bus Stop,Blueberry Bus Stop,47.602901,-122.136043,"https://www.google.com/maps/dir/?api=1&destination=47.602901,-122.1360430"
Lake Hills,Little League Federal Field,Little League Federal Field,47.601973,-122.137917,"https://www.google.com/maps/dir/?api=1&destination=47.601973,-122.1379170"
Lake Hills,"Lake to Lake Trailhead, 151st Ave Entrance",Lake to Lake Trailhead (151st),47.59881,-122.137003,"https://www.google.com/maps/dir/?api=1&destination=47.598810,-122.1370030"
Lake Hills,Bellevue Demonstration Garden,Bellevue Demonstration Garden,47.597158,-122.133281,"https://www.google.com/maps/dir/?api=1&destination=47.597158,-122.1332810"
Lake Hills,Nature Does Nothing Uselessly,Nature Does Nothing Uselessly,47.596921,-122.13359,"https://www.google.com/maps/dir/?api=1&destination=47.596921,-122.1335900"
Lake Hills,Lake Hills Park,Lake Hills Park,47.599626,-122.12107,"https://www.google.com/maps/dir/?api=1&destination=47.599626,-122.1210700"
Lake Hills,"Ducks And Dogs, The Rules Of Lake Hills Park",Lake Hills Park Rules,47.5976,-122.123532,"https://www.google.com/maps/dir/?api=1&destination=47.597600,-122.1235320"
Lake Hills,Robinsglen Nature Park,Robinsglen Nature Park,47.596512,-122.121239,"https://www.google.com/maps/dir/?api=1&destination=47.596512,-122.1212390"
Lake Hills,Welcome To Phantom Lake!,Phantom Lake,47.592393,-122.130937,"https://www.google.com/maps/dir/?api=1&destination=47.592393,-122.1309370"
Lake Hills,Trail System Sign,Weowna Park (Trail System Sign),47.596658,-122.115468,"https://www.google.com/maps/dir/?api=1&destination=47.596658,-122.1154680"
Lake Hills,Lake To Lake Trail Sign,Lake To Lake Trail Sign,47.595704,-122.1154,"https://www.google.com/maps/dir/?api=1&destination=47.595704,-122.1154000"
Lake Hills,Trees Wanted Dead or Alive,Weowna Park (Trees Wanted),47.593918,-122.115547,"https://www.google.com/maps/dir/?api=1&destination=47.593918,-122.1155470"
Lake Hills,West Lake Sammamish Lion,West Lake Sammamish Lion,47.595314,-122.111383,"https://www.google.com/maps/dir/?api=1&destination=47.595314,-122.1113830"
Lake Hills,Lake To Lake Trail,Lake To Lake Trail (26th Street),47.589022,-122.117032,"https://www.google.com/maps/dir/?api=1&destination=47.589022,-122.1170320"
Lake Hills,City of Bellevue Trail System Marker (24th),Bellevue Trail System Marker (24th),47.588855,-122.122642,"https://www.google.com/maps/dir/?api=1&destination=47.588855,-122.1226420"
Lake Hills,Spiritridge and Phantom Lake Trailhead,Spiritridge and Phantom Lake Trailhead,47.588893,-122.125897,"https://www.google.com/maps/dir/?api=1&destination=47.588893,-122.1258970"
Lake Hills,Bellevue Trail Post,Bellevue Airfield Park,47.586778,-122.128403,"https://www.google.com/maps/dir/?api=1&destination=47.586778,-122.1284030"
Lake Hills,Forty One Point Five Park,Forty One Point Five Park,47.573847,-122.111206,"https://www.google.com/maps/dir/?api=1&destination=47.573847,-122.1112060"
Lake Hills,Vasa Park Fountain,Vasa Park (Fountain),47.576751,-122.112869,"https://www.google.com/maps/dir/?api=1&destination=47.576751,-122.1128690"
Lake Hills,Vasa Park Reunion Building,Vasa Park (Reunion Building),47.576745,-122.114125,"https://www.google.com/maps/dir/?api=1&destination=47.576745,-122.1141250"
Lake Hills,Spiritridge Park Rock,Spiritridge Park Rock,47.58096,-122.128001,"https://www.google.com/maps/dir/?api=1&destination=47.580960,-122.1280010"
Lake Hills,Blue Bowl Fountain,Blue Bowl Fountain,47.580815,-122.133746,"https://www.google.com/maps/dir/?api=1&destination=47.580815,-122.1337460"
Lake Hills,City of Bellevue Trail System Marker (156th),Bellevue Trail System Marker (156th),47.585358,-122.132417,"https://www.google.com/maps/dir/?api=1&destination=47.585358,-122.1324170"
Lake Hills,Robinswood Tennis Center,Robinswood Park (Tennis Center),47.588971,-122.138011,"https://www.google.com/maps/dir/?api=1&destination=47.588971,-122.1380110"
Lake Hills,"""The Dogs Know"" Amelia Gray Memorial Bench",Robinswood Park (Bench),47.587637,-122.138615,"https://www.google.com/maps/dir/?api=1&destination=47.587637,-122.1386150"
Lake Hills,Robinswood Dog Park,Robinswood Park (Dog Park),47.587905,-122.14243,"https://www.google.com/maps/dir/?api=1&destination=47.587905,-122.1424300"
Lake Hills,Robinswood Park Trail Entrance,Robinswood Park (Trail),47.586816,-122.142353,"https://www.google.com/maps/dir/?api=1&destination=47.586816,-122.1423530"
Lake Hills,The Church Of Jesus Christ Of Latter-Day Saints (Lake Hills),LDS (Lake Hills),47.584283,-122.141151,"https://www.google.com/maps/dir/?api=1&destination=47.584283,-122.1411510"
Lake Hills,Pergola,Sunset Village (Pergola),47.581765,-122.14024,"https://www.google.com/maps/dir/?api=1&destination=47.581765,-122.1402400"
Lake Hills,Lil Jon Restaurant,Sunset Village (Lil Jon Restaurant),47.581852,-122.138912,"https://www.google.com/maps/dir/?api=1&destination=47.581852,-122.1389120"
Overlake,Electric Blue Tower of Power,Electric Blue Tower of Power,47.630915,-122.1346100,"https://www.google.com/maps/dir/?api=1&destination=47.630915,-122.1346100"
Overlake,Giant Leaves,Giant Leaves,47.632664,-122.1362880,"https://www.google.com/maps/dir/?api=1&destination=47.632664,-122.1362880"
Overlake,Qdoba Mural,Qdoba Mural,47.631969,-122.1382990,"https://www.google.com/maps/dir/?api=1&destination=47.631969,-122.1382990"
Overlake,Brown Bear Car Wash Bel-Red,Brown Bear Car Wash Bel-Red,47.628316,-122.1363500,"https://www.google.com/maps/dir/?api=1&destination=47.628316,-122.1363500"
Overlake,Highland Covenant Church,Highland Covenant Church,47.627729,-122.1381680,"https://www.google.com/maps/dir/?api=1&destination=47.627729,-122.1381680"
Overlake,Starbucks (Overlake),Starbucks (Overlake),47.628162,-122.1411100,"https://www.google.com/maps/dir/?api=1&destination=47.628162,-122.1411100"
Overlake,Overlake Black Bears,Overlake Black Bears,47.631661,-122.1433360,"https://www.google.com/maps/dir/?api=1&destination=47.631661,-122.1433360"
Overlake,Commissioner's Waterway,Commissioner's Waterway,47.626196,-122.1434900,"https://www.google.com/maps/dir/?api=1&destination=47.626196,-122.1434900"
Overlake,Bellevue Totem,Bellevue Totem,47.629342,-122.1473680,"https://www.google.com/maps/dir/?api=1&destination=47.629342,-122.1473680"
Overlake,Brown Bear,Brown Bear,47.616887,-122.1428960,"https://www.google.com/maps/dir/?api=1&destination=47.616887,-122.1428960"
Redmond,Prescott Community Park,Prescott Community Park,47.708327,-122.1182800,"https://www.google.com/maps/dir/?api=1&destination=47.708327,-122.1182800"
Redmond,Washington Cathedral,Washington Cathedral,47.709688,-122.1313500,"https://www.google.com/maps/dir/?api=1&destination=47.709688,-122.1313500"
Overlake,Salmon Woman and Raven,Salmon Woman and Raven,47.625192,-122.1505380,"https://www.google.com/maps/dir/?api=1&destination=47.625192,-122.1505380"
Overlake,Lake Sammamish Foursquare Church,Foursquare Church,47.617415,-122.1464740,"https://www.google.com/maps/dir/?api=1&destination=47.617415,-122.1464740"
Overlake,Leaf Seat,Leaf Seat,47.616016,-122.1535190,"https://www.google.com/maps/dir/?api=1&destination=47.616016,-122.1535190"
Overlake,Islamic Center of the Eastside,Islamic Center of the Eastside,47.610085,-122.1440990,"https://www.google.com/maps/dir/?api=1&destination=47.610085,-122.1440990"
Lake Hills,Enhancing the Wetland Home for Wildlife,Enhancing the Wetland Home for Wildlife,47.606089,-122.1442030,"https://www.google.com/maps/dir/?api=1&destination=47.606089,-122.1442030"
Lake Hills,Lake To Lake Boardwalk Bog,Lake To Lake Boardwalk Bog,47.606750,-122.1455360,"https://www.google.com/maps/dir/?api=1&destination=47.606750,-122.1455360"
Lake Hills,Lake to Lake Trail,Lake to Lake Trail,47.606702,-122.1468410,"https://www.google.com/maps/dir/?api=1&destination=47.606702,-122.1468410"
Lake Hills,Bellevue Seventh Day Adventist Church,Bellevue Seventh Day Adventist Church,47.610102,-122.1542130,"https://www.google.com/maps/dir/?api=1&destination=47.610102,-122.1542130"
Lake Hills,Lakt to Lake Trail Marker,Lakt to Lake Trail Marker,47.606764,-122.1536030,"https://www.google.com/maps/dir/?api=1&destination=47.606764,-122.1536030"
Lake Hills,The Ridgedale Apartment Homes,The Ridgedale Apartment Homes,47.604362,-122.1533280,"https://www.google.com/maps/dir/?api=1&destination=47.604362,-122.1533280"
Lake Hills,Watching Washington,Watching Washington,47.600058,-122.1476750,"https://www.google.com/maps/dir/?api=1&destination=47.600058,-122.1476750"
Lake Hills,Sunset Hills Memorial Park North Entrance,Sunset Hills Memorial Park North Entrance,47.599717,-122.1528310,"https://www.google.com/maps/dir/?api=1&destination=47.599717,-122.1528310"
Lake Hills,Church Of Christ Lake Hills,Church Of Christ Lake Hills,47.597962,-122.1506150,"https://www.google.com/maps/dir/?api=1&destination=47.597962,-122.1506150"
Lake Hills,Starbucks (Lake Hills),Starbucks (Lake Hills),47.596722,-122.1487740,"https://www.google.com/maps/dir/?api=1&destination=47.596722,-122.1487740"
Lake Hills,Sunset Hills Memorial Park,Sunset Hills Memorial Park,47.596132,-122.1504920,"https://www.google.com/maps/dir/?api=1&destination=47.596132,-122.1504920"
Lake Hills,Bellevue College Fountain,Bellevue College Fountain,47.584392,-122.1495150,"https://www.google.com/maps/dir/?api=1&destination=47.584392,-122.1495150"
Lake Hills,The Other Woman,The Other Woman,47.583665,-122.1497270,"https://www.google.com/maps/dir/?api=1&destination=47.583665,-122.1497270"
Lake Hills,Sunset Park,Sunset Park,47.587397,-122.1554420,"https://www.google.com/maps/dir/?api=1&destination=47.587397,-122.1554420"
Lake Hills,Balance of Order,Balance of Order,47.580375,-122.1522270,"https://www.google.com/maps/dir/?api=1&destination=47.580375,-122.1522270"
Lake Hills,Freeway Fish,Freeway Fish,47.579568,-122.1516140,"https://www.google.com/maps/dir/?api=1&destination=47.579568,-122.1516140"
Bellevue,NE 8th Art Wall: Easton Court,NE 8th Art Wall: Easton Court,47.616998,-122.1560610,"https://www.google.com/maps/dir/?api=1&destination=47.616998,-122.1560610"
Bellevue,MOX Boarding House,MOX Boarding House,47.622703,-122.1625050,"https://www.google.com/maps/dir/?api=1&destination=47.622703,-122.1625050"
Bellevue,Magic Chandelier,Magic Chandelier,47.622632,-122.1628060,"https://www.google.com/maps/dir/?api=1&destination=47.622632,-122.1628060"
Bellevue,Tennis Academy,Tennis Academy,47.623745,-122.1642630,"https://www.google.com/maps/dir/?api=1&destination=47.623745,-122.1642630"
Bellevue,Bellevue Fire Station,Bellevue Fire Station,47.626079,-122.1639110,"https://www.google.com/maps/dir/?api=1&destination=47.626079,-122.1639110"
Bellevue,Stories of Autism,Stories of Autism,47.629091,-122.1662470,"https://www.google.com/maps/dir/?api=1&destination=47.629091,-122.1662470"
Bellevue,Satellite Antenna,Satellite Antenna,47.628635,-122.1706420,"https://www.google.com/maps/dir/?api=1&destination=47.628635,-122.1706420"
Bellevue,NE 8th Art Wall: Brookwood,NE 8th Art Wall: Brookwood,47.617139,-122.1677690,"https://www.google.com/maps/dir/?api=1&destination=47.617139,-122.1677690"
Bellevue,KA-BOOM,KA-BOOM,47.620044,-122.1734860,"https://www.google.com/maps/dir/?api=1&destination=47.620044,-122.1734860"
Bellevue,Sculpted Stump,Sculpted Stump,47.619725,-122.1734190,"https://www.google.com/maps/dir/?api=1&destination=47.619725,-122.1734190"
Bellevue,Crab Netting Neon,Crab Netting Neon,47.620172,-122.1798360,"https://www.google.com/maps/dir/?api=1&destination=47.620172,-122.1798360"
Bellevue,The Pumphouse,The Pumphouse,47.617730,-122.1832150,"https://www.google.com/maps/dir/?api=1&destination=47.617730,-122.1832150"
Bellevue,Corner Cupcake,Corner Cupcake,47.616384,-122.1807880,"https://www.google.com/maps/dir/?api=1&destination=47.616384,-122.1807880"
Bridle Trails,Pike's Peak,Pike's Peak,47.633299,-122.1791970,"https://www.google.com/maps/dir/?api=1&destination=47.633299,-122.1791970"
Bridle Trails,Cherry Crest Park,Cherry Crest Park,47.633240,-122.1703540,"https://www.google.com/maps/dir/?api=1&destination=47.633240,-122.1703540"
Bridle Trails,Bridle Trails Viewpoint Park,Bridle Trails Viewpoint Park,47.631508,-122.1621410,"https://www.google.com/maps/dir/?api=1&destination=47.631508,-122.1621410"
Bridle Trails,"Westminster ""W""","Westminster ""W""",47.632738,-122.1573250,"https://www.google.com/maps/dir/?api=1&destination=47.632738,-122.1573250"
Bridle Trails,Eastside Harley Davidson,Eastside Harley Davidson,47.630599,-122.1558170,"https://www.google.com/maps/dir/?api=1&destination=47.630599,-122.1558170"
Bridle Trails,"Second Church of Christ, Scientist, Bellevue, WA","Second Church of Christ, Scientist, Bellevue, WA",47.629974,-122.1554770,"https://www.google.com/maps/dir/?api=1&destination=47.629974,-122.1554770"
Bridle Trails,Bridle Trails Gazebo,Bridle Trails Gazebo,47.646395,-122.1645190,"https://www.google.com/maps/dir/?api=1&destination=47.646395,-122.1645190"
Bridle Trails,Bridle Crest Trail,Bridle Crest Trail,47.660711,-122.1639300,"https://www.google.com/maps/dir/?api=1&destination=47.660711,-122.1639300"
Bridle Trails,Franklin Park North Trailhead,Franklin Park North Trailhead,47.663610,-122.1730560,"https://www.google.com/maps/dir/?api=1&destination=47.663610,-122.1730560"
Bridle Trails,Central Park Tennis Club,Central Park Tennis Club,47.660630,-122.1733130,"https://www.google.com/maps/dir/?api=1&destination=47.660630,-122.1733130"
Bridle Trails,Conifer Species Stand,Conifer Species Stand,47.655895,-122.1732720,"https://www.google.com/maps/dir/?api=1&destination=47.655895,-122.1732720"
Bridle Trails,Forest Gaps Stand,Forest Gaps Stand,47.653616,-122.1720720,"https://www.google.com/maps/dir/?api=1&destination=47.653616,-122.1720720"
Bridle Trails,Good and Bad Stand,Good and Bad Stand,47.652912,-122.1782660,"https://www.google.com/maps/dir/?api=1&destination=47.652912,-122.1782660"
Bridle Trails,Trillium Trail Dedication Plaque,Trillium Trail Dedication Plaque,47.654776,-122.1827630,"https://www.google.com/maps/dir/?api=1&destination=47.654776,-122.1827630"
Bridle Trails,Bridle Trails State Park,Bridle Trails State Park,47.655032,-122.1841870,"https://www.google.com/maps/dir/?api=1&destination=47.655032,-122.1841870"
Bridle Trails,Horse Show Arena,Horse Show Arena,47.655977,-122.1846970,"https://www.google.com/maps/dir/?api=1&destination=47.655977,-122.1846970"
Bridle Trails,Bridle Trails,Bridle Trails,47.655404,-122.1852340,"https://www.google.com/maps/dir/?api=1&destination=47.655404,-122.1852340"
Bridle Trails,Lake East Christian Church,Lake East Christian Church,47.654849,-122.1857380,"https://www.google.com/maps/dir/?api=1&destination=47.654849,-122.1857380"
Rose Hill,Houghton Bus Stop Art,Houghton Bus Stop Art,47.668943,-122.1848390,"https://www.google.com/maps/dir/?api=1&destination=47.668943,-122.1848390"
Rose Hill,Holy Family Catholic Church,Holy Family Catholic Church,47.669834,-122.1809310,"https://www.google.com/maps/dir/?api=1&destination=47.669834,-122.1809310"
Rose Hill,Auzias de Turenne,Auzias de Turenne,47.676058,-122.1790370,"https://www.google.com/maps/dir/?api=1&destination=47.676058,-122.1790370"
Rose Hill,Rose Hill Meadows Park,Rose Hill Meadows Park,47.677520,-122.1758360,"https://www.google.com/maps/dir/?api=1&destination=47.677520,-122.1758360"
Rose Hill,Tzu Chi Mural,Tzu Chi Mural,47.678984,-122.1700850,"https://www.google.com/maps/dir/?api=1&destination=47.678984,-122.1700850"
Rose Hill,Mercury's Coffee House,Mercury's Coffee House,47.679658,-122.1779560,"https://www.google.com/maps/dir/?api=1&destination=47.679658,-122.1779560"
Rose Hill,Rose Hill Presbyterian Church,Rose Hill Presbyterian Church,47.682646,-122.1783590,"https://www.google.com/maps/dir/?api=1&destination=47.682646,-122.1783590"
Rose Hill,Redmond Way Stormwater Pond,Redmond Way Stormwater Pond,47.676566,-122.1531480,"https://www.google.com/maps/dir/?api=1&destination=47.676566,-122.1531480"
Rose Hill,The City Church,The City Church,47.684159,-122.1643110,"https://www.google.com/maps/dir/?api=1&destination=47.684159,-122.1643110"
Rose Hill,Lake Kirkland Park,Lake Kirkland Park,47.687625,-122.1769220,"https://www.google.com/maps/dir/?api=1&destination=47.687625,-122.1769220"
Rose Hill,Protect the Forbes,Protect the Forbes,47.687487,-122.1743430,"https://www.google.com/maps/dir/?api=1&destination=47.687487,-122.1743430"
Rose Hill,St. George's Coptic Orthodox Church,St. George's Coptic Orthodox Church,47.689862,-122.1646000,"https://www.google.com/maps/dir/?api=1&destination=47.689862,-122.1646000"
Rose HIll,Mark Twain Park,Mark Twain Park,47.695799,-122.1647830,"https://www.google.com/maps/dir/?api=1&destination=47.695799,-122.1647830"
Rose Hill,William Finkbeiner Field,William Finkbeiner Field,47.697401,-122.1771470,"https://www.google.com/maps/dir/?api=1&destination=47.697401,-122.1771470"
Rose HIll,Nick's Grill,Nick's Grill,47.704269,-122.1764680,"https://www.google.com/maps/dir/?api=1&destination=47.704269,-122.1764680"
Rose Hill,Sounding,Sounding,47.704743,-122.1681790,"https://www.google.com/maps/dir/?api=1&destination=47.704743,-122.1681790"
Rose Hill,Surreal City Mural,Surreal City Mural,47.704300,-122.1645810,"https://www.google.com/maps/dir/?api=1&destination=47.704300,-122.1645810"
Rose Hill,Physio Control 911 LP500 AED,Physio Control 911 LP500 AED,47.706964,-122.1558310,"https://www.google.com/maps/dir/?api=1&destination=47.706964,-122.1558310"
Redmond,Sammamish River Trail at 60 Acres,Sammamish River Trail at 60 Acres,47.704358,-122.1425270,"https://www.google.com/maps/dir/?api=1&destination=47.704358,-122.1425270"
Redmond,Jennifer Dunn Memorial Flagpole and Garden,Jennifer Dunn Memorial Flagpole and Garden,47.704430,-122.1420460,"https://www.google.com/maps/dir/?api=1&destination=47.704430,-122.1420460"
Bellevue,Wilburton Hill Park Entrance,Wilburton Hill Park Entrance,47.609980,-122.1747810,"https://www.google.com/maps/dir/?api=1&destination=47.609980,-122.1747810"
Bellevue,Bellevue Botanical Waterfall,Bellevue Botanical Waterfall,47.609193,-122.1789080,"https://www.google.com/maps/dir/?api=1&destination=47.609193,-122.1789080"
Bellevue,Impossible Balancing Rocks,Impossible Balancing Rocks,47.608848,-122.1802900,"https://www.google.com/maps/dir/?api=1&destination=47.608848,-122.1802900"
Bellevue,Native Discovery,Native Discovery,47.608232,-122.1783450,"https://www.google.com/maps/dir/?api=1&destination=47.608232,-122.1783450"
Bellevue,PACCAR Donation Bench,PACCAR Donation Bench,47.607243,-122.1779500,"https://www.google.com/maps/dir/?api=1&destination=47.607243,-122.1779500"
Bellevue,The Ravine Bridge,The Ravine Bridge,47.606359,-122.1775820,"https://www.google.com/maps/dir/?api=1&destination=47.606359,-122.1775820"
Bellevue,128th Ave Trail Marker,128th Ave Trail Marker,47.607310,-122.1695560,"https://www.google.com/maps/dir/?api=1&destination=47.607310,-122.1695560"
Bellevue,Bellevue Fire Station 7,Bellevue Fire Station 7,47.603790,-122.1813420,"https://www.google.com/maps/dir/?api=1&destination=47.603790,-122.1813420"
Bellevue,Wilburton Trestle,Wilburton Trestle,47.601974,-122.1806430,"https://www.google.com/maps/dir/?api=1&destination=47.601974,-122.1806430"
Bellevue,McTavish Trail Head,McTavish Trail Head,47.601440,-122.1747810,"https://www.google.com/maps/dir/?api=1&destination=47.601440,-122.1747810"
Lake Hills,Wood Ridge Open Loop Trail Marker,Wood Ridge Open Loop Trail Marker,47.595555,-122.1694770,"https://www.google.com/maps/dir/?api=1&destination=47.595555,-122.1694770"
Lake Hills,Woodridge Watertower,Woodridge Watertower,47.593469,-122.1738720,"https://www.google.com/maps/dir/?api=1&destination=47.593469,-122.1738720"
Lake Hills,Norwood Village Park,Norwood Village Park,47.589681,-122.1744140,"https://www.google.com/maps/dir/?api=1&destination=47.589681,-122.1744140"
Lake Hills,Bronze Bears,Bronze Bears,47.582255,-122.1719600,"https://www.google.com/maps/dir/?api=1&destination=47.582255,-122.1719600"
Lake Hills,Catalina Fountain,Catalina Fountain,47.591469,-122.1638540,"https://www.google.com/maps/dir/?api=1&destination=47.591469,-122.1638540"
Lake Hills,Printed Circuits,Printed Circuits,47.587231,-122.1631270,"https://www.google.com/maps/dir/?api=1&destination=47.587231,-122.1631270"
Lake Hills,Seattle Humane Society,Seattle Humane Society,47.580630,-122.1630570,"https://www.google.com/maps/dir/?api=1&destination=47.580630,-122.1630570"
Lake Hills,Richards Valley Trail Head,Richards Valley Trail Head,47.592448,-122.1589470,"https://www.google.com/maps/dir/?api=1&destination=47.592448,-122.1589470"
Lake Hills,Skyridge Park,Skyridge Park,47.592375,-122.1582840,"https://www.google.com/maps/dir/?api=1&destination=47.592375,-122.1582840"
Lake Hills,Lake to Lake Trail Marker (Kelsey Creek),Lake to Lake Trail Marker (Kelsey Creek),47.605854,-122.1621620,"https://www.google.com/maps/dir/?api=1&destination=47.605854,-122.1621620"
Lake Hills,Fraser House,Fraser House,47.603164,-122.1640450,"https://www.google.com/maps/dir/?api=1&destination=47.603164,-122.1640450"
Lake HIlls,Lake 2 Lake Marker,Lake 2 Lake Marker,47.605135,-122.1590910,"https://www.google.com/maps/dir/?api=1&destination=47.605135,-122.1590910"
Lake Hills,Kelsey Creek Farm Trail Marker,Kelsey Creek Farm Trail Marker,47.602041,-122.1590970,"https://www.google.com/maps/dir/?api=1&destination=47.602041,-122.1590970"
